[{"id":"122386","name":"いすみ市","lat":35.25388889,"lng":140.3852778},{"id":"122157","name":"旭市","lat":35.716116,"lng":140.648217},{"id":"124214","name":"一宮町","lat":35.37277778,"lng":140.3688889},{"id":"122319","name":"印西市","lat":35.83222222,"lng":140.1458333},{"id":"122271","name":"浦安市","lat":35.65361111,"lng":139.9016667},{"id":"123293","name":"栄町","lat":35.84083333,"lng":140.2438889},{"id":"124109","name":"横芝光町","lat":35.66555556,"lng":140.5041667},{"id":"122220","name":"我孫子市","lat":35.86416667,"lng":140.0283333},{"id":"122246","name":"鎌ケ谷市","lat":35.77694444,"lng":140.0008333},{"id":"122238","name":"鴨川市","lat":35.11416667,"lng":140.0988889},{"id":"122050","name":"館山市","lat":34.99666667,"lng":139.87},{"id":"124630","name":"鋸南町","lat":35.11111111,"lng":139.8355556},{"id":"124036","name":"九十九里町","lat":35.535,"lng":140.4405556},{"id":"122254","name":"君津市","lat":35.33055556,"lng":139.9025},{"id":"124435","name":"御宿町","lat":35.19166667,"lng":140.3486111},{"id":"122360","name":"香取市","lat":35.89777778,"lng":140.4991667},{"id":"122122","name":"佐倉市","lat":35.72388889,"lng":140.2238889},{"id":"122378","name":"山武市","lat":35.60277778,"lng":140.4136111},{"id":"122289","name":"四街道市","lat":35.67,"lng":140.1683333},{"id":"122190","name":"市原市","lat":35.49805556,"lng":140.1155556},{"id":"122033","name":"市川市","lat":35.72194444,"lng":139.9311111},{"id":"124095","name":"芝山町","lat":35.69305556,"lng":140.4141667},{"id":"123226","name":"酒々井町","lat":35.725,"lng":140.2694444},{"id":"122165","name":"習志野市","lat":35.68083333,"lng":140.0266667},{"id":"122181","name":"勝浦市","lat":35.1525,"lng":140.3211111},{"id":"122076","name":"松戸市","lat":35.78777778,"lng":139.9030556},{"id":"123421","name":"神崎町","lat":35.90166667,"lng":140.4052778},{"id":"122114","name":"成田市","lat":35.77666667,"lng":140.3183333},{"id":"121002","name":"千葉市","lat":35.60722222,"lng":140.1063889},{"id":"121037","name":"千葉市稲毛区","lat":35.63638889,"lng":140.1072222},{"id":"121029","name":"千葉市花見川区","lat":35.66277778,"lng":140.0691667},{"id":"121045","name":"千葉市若葉区","lat":35.63416667,"lng":140.1555556},{"id":"121011","name":"千葉市中央区","lat":35.60888889,"lng":140.1247222},{"id":"121061","name":"千葉市美浜区","lat":35.64027778,"lng":140.0630556},{"id":"121053","name":"千葉市緑区","lat":35.56027778,"lng":140.1763889},{"id":"122041","name":"船橋市","lat":35.69472222,"lng":139.9825},{"id":"122351","name":"匝瑳市","lat":35.70777778,"lng":140.5644444},{"id":"122297","name":"袖ケ浦市","lat":35.43,"lng":139.9547222},{"id":"123471","name":"多古町","lat":35.73555556,"lng":140.4677778},{"id":"124419","name":"大多喜町","lat":35.285,"lng":140.2455556},{"id":"122394","name":"大網白里市","lat":35.52166667,"lng":140.3211111},{"id":"122025","name":"銚子市","lat":35.73472222,"lng":140.8266667},{"id":"124231","name":"長生村","lat":35.41222222,"lng":140.3541667},{"id":"124273","name":"長南町","lat":35.38666667,"lng":140.2372222},{"id":"124265","name":"長柄町","lat":35.43111111,"lng":140.2269444},{"id":"122131","name":"東金市","lat":35.56,"lng":140.3661111},{"id":"123498","name":"東庄町","lat":35.83722222,"lng":140.6688889},{"id":"122343","name":"南房総市","lat":35.04333333,"lng":139.8402778},{"id":"122173","name":"柏市","lat":35.86805556,"lng":139.9763889},{"id":"122327","name":"白井市","lat":35.79166667,"lng":140.0563889},{"id":"124249","name":"白子町","lat":35.45444444,"lng":140.3744444},{"id":"122301","name":"八街市","lat":35.66583333,"lng":140.3183333},{"id":"122211","name":"八千代市","lat":35.7225,"lng":140.0997222},{"id":"122262","name":"富津市","lat":35.30416667,"lng":139.8569444},{"id":"122335","name":"富里市","lat":35.72666667,"lng":140.3430556},{"id":"124222","name":"睦沢町","lat":35.36111111,"lng":140.3191667},{"id":"122106","name":"茂原市","lat":35.42833333,"lng":140.2880556},{"id":"122068","name":"木更津市","lat":35.381208,"lng":139.924905},{"id":"122084","name":"野田市","lat":35.955,"lng":139.8747222},{"id":"122203","name":"流山市","lat":35.85611111,"lng":139.9025}]