[{"id":"232378","name":"あま市","lat":35.20055556,"lng":136.7836111},{"id":"232360","name":"みよし市","lat":35.08972222,"lng":137.0744444},{"id":"234419","name":"阿久比町","lat":34.9325,"lng":136.9155556},{"id":"232327","name":"愛西市","lat":35.15277778,"lng":136.7283333},{"id":"232122","name":"安城市","lat":34.95861426,"lng":137.0802809},{"id":"232033","name":"一宮市","lat":35.30416667,"lng":136.8025},{"id":"232203","name":"稲沢市","lat":35.24805556,"lng":136.7802778},{"id":"232025","name":"岡崎市","lat":34.95472222,"lng":137.1730556},{"id":"234257","name":"蟹江町","lat":35.13222222,"lng":136.7869444},{"id":"232149","name":"蒲郡市","lat":34.82638889,"lng":137.2197222},{"id":"232106","name":"刈谷市","lat":34.98916667,"lng":137.0025},{"id":"232289","name":"岩倉市","lat":35.28,"lng":136.8713889},{"id":"232157","name":"犬山市","lat":35.37861111,"lng":136.9441667},{"id":"235016","name":"幸田町","lat":34.86472222,"lng":137.1655556},{"id":"232173","name":"江南市","lat":35.33222222,"lng":136.8708333},{"id":"232271","name":"高浜市","lat":34.9275,"lng":136.9877778},{"id":"232068","name":"春日井市","lat":35.2475,"lng":136.9722222},{"id":"232190","name":"小牧市","lat":35.290311,"lng":136.910948},{"id":"232165","name":"常滑市","lat":34.88666667,"lng":136.8325},{"id":"232211","name":"新城市","lat":34.89916667,"lng":137.4986111},{"id":"232041","name":"瀬戸市","lat":35.22333333,"lng":137.0841667},{"id":"232335","name":"清須市","lat":35.19972222,"lng":136.8527778},{"id":"232131","name":"西尾市","lat":34.86194444,"lng":137.0619444},{"id":"235610","name":"設楽町","lat":35.097298,"lng":137.571225},{"id":"233617","name":"大口町","lat":35.3325,"lng":136.9077778},{"id":"234249","name":"大治町","lat":35.175,"lng":136.82},{"id":"232238","name":"大府市","lat":35.01222222,"lng":136.9633333},{"id":"232246","name":"知多市","lat":34.99666667,"lng":136.8647222},{"id":"232254","name":"知立市","lat":35.00138889,"lng":137.0505556},{"id":"232386","name":"長久手市","lat":35.18416667,"lng":137.0486111},{"id":"232084","name":"津島市","lat":35.17722222,"lng":136.7413889},{"id":"232319","name":"田原市","lat":34.66916667,"lng":137.2636111},{"id":"234427","name":"東浦町","lat":34.97722222,"lng":136.9655556},{"id":"235628","name":"東栄町","lat":35.07694444,"lng":137.6977778},{"id":"232220","name":"東海市","lat":35.02305556,"lng":136.9025},{"id":"233021","name":"東郷町","lat":35.09694444,"lng":137.0525},{"id":"234451","name":"南知多町","lat":34.71527778,"lng":136.9297222},{"id":"232301","name":"日進市","lat":35.13194444,"lng":137.0394444},{"id":"232050","name":"半田市","lat":34.8925,"lng":136.9377778},{"id":"234273","name":"飛島村","lat":35.07888889,"lng":136.7913889},{"id":"232262","name":"尾張旭市","lat":35.21638889,"lng":137.0352778},{"id":"234460","name":"美浜町","lat":34.77888889,"lng":136.9083333},{"id":"233625","name":"扶桑町","lat":35.35916667,"lng":136.9130556},{"id":"234478","name":"武豊町","lat":34.85138889,"lng":136.915},{"id":"232092","name":"碧南市","lat":34.88472222,"lng":136.9936111},{"id":"232017","name":"豊橋市","lat":34.76916667,"lng":137.3913889},{"id":"235636","name":"豊根村","lat":35.14638889,"lng":137.7197222},{"id":"233421","name":"豊山町","lat":35.25083333,"lng":136.9122222},{"id":"232076","name":"豊川市","lat":34.82694444,"lng":137.3758333},{"id":"232114","name":"豊田市","lat":35.08333333,"lng":137.1563889},{"id":"232297","name":"豊明市","lat":35.05388889,"lng":137.0127778},{"id":"232343","name":"北名古屋市","lat":35.24555556,"lng":136.8661111},{"id":"231002","name":"名古屋市","lat":35.18166667,"lng":136.9063889},{"id":"231118","name":"名古屋市港区","lat":35.10777778,"lng":136.8855556},{"id":"231134","name":"名古屋市守山区","lat":35.20333333,"lng":136.9766667},{"id":"231070","name":"名古屋市昭和区","lat":35.15027778,"lng":136.9341667},{"id":"231088","name":"名古屋市瑞穂区","lat":35.13166667,"lng":136.935},{"id":"231045","name":"名古屋市西区","lat":35.18916666,"lng":136.89},{"id":"231011","name":"名古屋市千種区","lat":35.16638889,"lng":136.9463889},{"id":"231061","name":"名古屋市中区","lat":35.16861111,"lng":136.9102778},{"id":"231100","name":"名古屋市中川区","lat":35.14166667,"lng":136.855},{"id":"231053","name":"名古屋市中村区","lat":35.16861111,"lng":136.8730556},{"id":"231169","name":"名古屋市天白区","lat":35.12277778,"lng":136.975},{"id":"231029","name":"名古屋市東区","lat":35.17944444,"lng":136.9261111},{"id":"231126","name":"名古屋市南区","lat":35.095,"lng":136.9311111},{"id":"231096","name":"名古屋市熱田区","lat":35.12833333,"lng":136.9105556},{"id":"231037","name":"名古屋市北区","lat":35.19416667,"lng":136.9116667},{"id":"231151","name":"名古屋市名東区","lat":35.17583333,"lng":137.0102778},{"id":"231142","name":"名古屋市緑区","lat":35.07083333,"lng":136.9522222},{"id":"232351","name":"弥富市","lat":35.11,"lng":136.7247222}]