[{"id":"262030","name":"綾部市","lat":35.29888889,"lng":135.2586111},{"id":"264636","name":"伊根町","lat":35.67527777,"lng":135.2727778},{"id":"263435","name":"井手町","lat":34.79861111,"lng":135.8033333},{"id":"262048","name":"宇治市","lat":34.88444444,"lng":135.7997222},{"id":"263443","name":"宇治田原町","lat":34.845154,"lng":135.868238},{"id":"263648","name":"笠置町","lat":34.76055556,"lng":135.9394444},{"id":"262064","name":"亀岡市","lat":35.01361111,"lng":135.5738889},{"id":"263222","name":"久御山町","lat":34.88138889,"lng":135.7327778},{"id":"262056","name":"宮津市","lat":35.53555556,"lng":135.1955556},{"id":"262129","name":"京丹後市","lat":35.62416667,"lng":135.0611111},{"id":"264075","name":"京丹波町","lat":35.169997,"lng":135.419305},{"id":"262111","name":"京田辺市","lat":34.81444444,"lng":135.7677778},{"id":"261009","name":"京都市","lat":35.01166667,"lng":135.7683333},{"id":"261084","name":"京都市右京区","lat":35.01027778,"lng":135.7158333},{"id":"261068","name":"京都市下京区","lat":34.9875,"lng":135.7555556},{"id":"261033","name":"京都市左京区","lat":35.04860433,"lng":135.7785389},{"id":"261106","name":"京都市山科区","lat":34.9725,"lng":135.8136111},{"id":"261025","name":"京都市上京区","lat":35.02972222,"lng":135.7566667},{"id":"261114","name":"京都市西京区","lat":34.985,"lng":135.6933333},{"id":"261041","name":"京都市中京区","lat":35.01,"lng":135.7513889},{"id":"261050","name":"京都市東山区","lat":34.99694444,"lng":135.7763889},{"id":"261076","name":"京都市南区","lat":34.97666667,"lng":135.7466667},{"id":"261092","name":"京都市伏見区","lat":34.93611111,"lng":135.7613889},{"id":"261017","name":"京都市北区","lat":35.04111111,"lng":135.7541667},{"id":"262081","name":"向日市","lat":34.94861111,"lng":135.6983333},{"id":"262072","name":"城陽市","lat":34.85305556,"lng":135.78},{"id":"263664","name":"精華町","lat":34.76083333,"lng":135.7858333},{"id":"263036","name":"大山崎町","lat":34.90277778,"lng":135.6886111},{"id":"262099","name":"長岡京市","lat":34.92666667,"lng":135.6955556},{"id":"263672","name":"南山城村","lat":34.77277778,"lng":135.9938889},{"id":"262137","name":"南丹市","lat":35.10722222,"lng":135.47},{"id":"262102","name":"八幡市","lat":34.87555556,"lng":135.7077778},{"id":"262021","name":"舞鶴市","lat":35.47472222,"lng":135.3861111},{"id":"262013","name":"福知山市","lat":35.29666667,"lng":135.1263889},{"id":"262145","name":"木津川市","lat":34.73694444,"lng":135.8208333},{"id":"264652","name":"与謝野町","lat":35.56527778,"lng":135.1527778},{"id":"263656","name":"和束町","lat":34.79583333,"lng":135.905}]