[{"id":"282294","name":"たつの市","lat":34.85805556,"lng":134.5455556},{"id":"282065","name":"芦屋市","lat":34.72694444,"lng":135.3044444},{"id":"282073","name":"伊丹市","lat":34.78416667,"lng":135.4008333},{"id":"283819","name":"稲美町","lat":34.74888889,"lng":134.9136111},{"id":"282103","name":"加古川市","lat":34.75694444,"lng":134.8413889},{"id":"282201","name":"加西市","lat":34.92777778,"lng":134.8419444},{"id":"282286","name":"加東市","lat":34.9175,"lng":134.9736111},{"id":"285854","name":"香美町","lat":35.63222222,"lng":134.6291667},{"id":"282162","name":"高砂市","lat":34.76583333,"lng":134.7905556},{"id":"285013","name":"佐用町","lat":35.00416667,"lng":134.3558333},{"id":"282197","name":"三田市","lat":34.88944444,"lng":135.2252778},{"id":"282154","name":"三木市","lat":34.79666667,"lng":134.99},{"id":"284424","name":"市川町","lat":34.98944444,"lng":134.7630556},{"id":"282278","name":"宍粟市","lat":35.00444444,"lng":134.5494444},{"id":"282057","name":"洲本市","lat":34.3425,"lng":134.8955556},{"id":"282189","name":"小野市","lat":34.857867,"lng":134.939799},{"id":"284815","name":"上郡町","lat":34.87361111,"lng":134.3561111},{"id":"285862","name":"新温泉町","lat":35.62333333,"lng":134.4491667},{"id":"284467","name":"神河町","lat":35.06416667,"lng":134.7394444},{"id":"281000","name":"神戸市","lat":34.69,"lng":135.1955556},{"id":"281077","name":"神戸市須磨区","lat":34.65027778,"lng":135.1302778},{"id":"281085","name":"神戸市垂水区","lat":34.63055556,"lng":135.0569444},{"id":"281115","name":"神戸市西区","lat":34.68305556,"lng":134.9816667},{"id":"281107","name":"神戸市中央区","lat":34.695,"lng":135.1977778},{"id":"281069","name":"神戸市長田区","lat":34.66555556,"lng":135.1508333},{"id":"281018","name":"神戸市東灘区","lat":34.72027778,"lng":135.2655556},{"id":"281026","name":"神戸市灘区","lat":34.7125,"lng":135.2394444},{"id":"281051","name":"神戸市兵庫区","lat":34.68055556,"lng":135.1652778},{"id":"281093","name":"神戸市北区","lat":34.72722222,"lng":135.1444444},{"id":"282049","name":"西宮市","lat":34.73777778,"lng":135.3419444},{"id":"282138","name":"西脇市","lat":34.98343,"lng":134.97973},{"id":"282120","name":"赤穂市","lat":34.755,"lng":134.3902778},{"id":"282171","name":"川西市","lat":34.83,"lng":135.4172222},{"id":"282081","name":"相生市","lat":34.80361111,"lng":134.4680556},{"id":"283657","name":"多可町","lat":35.05027778,"lng":134.9233333},{"id":"284645","name":"太子町","lat":34.833246,"lng":134.572319},{"id":"282235","name":"丹波市","lat":35.17722222,"lng":135.0358333},{"id":"282219","name":"丹波篠山市","lat":35.07583333,"lng":135.2191667},{"id":"282260","name":"淡路市","lat":34.44,"lng":134.9147222},{"id":"283011","name":"猪名川町","lat":34.895,"lng":135.3761111},{"id":"282251","name":"朝来市","lat":35.33972222,"lng":134.8530556},{"id":"282243","name":"南あわじ市","lat":34.294417,"lng":134.779952},{"id":"282022","name":"尼崎市","lat":34.73333333,"lng":135.4063889},{"id":"283827","name":"播磨町","lat":34.71527778,"lng":134.8680556},{"id":"282014","name":"姫路市","lat":34.81527778,"lng":134.6855556},{"id":"284432","name":"福崎町","lat":34.95027778,"lng":134.7602778},{"id":"282146","name":"宝塚市","lat":34.8,"lng":135.3602778},{"id":"282090","name":"豊岡市","lat":35.54444444,"lng":134.82},{"id":"282031","name":"明石市","lat":34.64305556,"lng":134.9975},{"id":"282227","name":"養父市","lat":35.40472222,"lng":134.7675}]