[{"id":"322067","name":"安来市","lat":35.43166667,"lng":133.2508333},{"id":"325287","name":"隠岐の島町","lat":36.213394,"lng":133.311818},{"id":"322091","name":"雲南市","lat":35.307718,"lng":132.900345},{"id":"322041","name":"益田市","lat":34.675,"lng":131.8427778},{"id":"323438","name":"奥出雲町","lat":35.1975,"lng":133.0025},{"id":"325252","name":"海士町","lat":36.09666667,"lng":133.0969444},{"id":"325058","name":"吉賀町","lat":34.35361111,"lng":131.935},{"id":"322075","name":"江津市","lat":35.011621,"lng":132.217754},{"id":"322032","name":"出雲市","lat":35.36694444,"lng":132.7547222},{"id":"322016","name":"松江市","lat":35.46805556,"lng":133.0486111},{"id":"325261","name":"西ノ島町","lat":36.091825,"lng":133.013467},{"id":"324418","name":"川本町","lat":34.995211,"lng":132.495853},{"id":"322059","name":"大田市","lat":35.19222222,"lng":132.4997222},{"id":"325279","name":"知夫村","lat":36.01416667,"lng":133.0397222},{"id":"325015","name":"津和野町","lat":34.541961,"lng":131.83508},{"id":"323861","name":"飯南町","lat":35,"lng":132.7138889},{"id":"324485","name":"美郷町","lat":35.07666667,"lng":132.5911111},{"id":"322024","name":"浜田市","lat":34.89916667,"lng":132.08},{"id":"324493","name":"邑南町","lat":34.89388889,"lng":132.4377778}]