[{"id":"372064","name":"さぬき市","lat":34.32527778,"lng":134.1722222},{"id":"374067","name":"まんのう町","lat":34.19222222,"lng":133.8413889},{"id":"373877","name":"綾川町","lat":34.24944444,"lng":133.9230556},{"id":"373869","name":"宇多津町","lat":34.31055556,"lng":133.8255556},{"id":"372056","name":"観音寺市","lat":34.12722222,"lng":133.6616667},{"id":"372021","name":"丸亀市","lat":34.28944444,"lng":133.7977778},{"id":"374032","name":"琴平町","lat":34.19138889,"lng":133.8233333},{"id":"372013","name":"高松市","lat":34.34277778,"lng":134.0466667},{"id":"372030","name":"坂出市","lat":34.31638889,"lng":133.8605556},{"id":"372081","name":"三豊市","lat":34.18277777,"lng":133.715},{"id":"373419","name":"三木町","lat":34.26833333,"lng":134.1344444},{"id":"373249","name":"小豆島町","lat":34.479714,"lng":134.30888},{"id":"372048","name":"善通寺市","lat":34.22833333,"lng":133.7872222},{"id":"374041","name":"多度津町","lat":34.2725,"lng":133.7536111},{"id":"373648","name":"直島町","lat":34.46,"lng":133.9955556},{"id":"373222","name":"土庄町","lat":34.486653,"lng":134.188629},{"id":"372072","name":"東かがわ市","lat":34.24388889,"lng":134.3588889}]