[{"id":"402257","name":"うきは市","lat":33.34722222,"lng":130.755},{"id":"406252","name":"みやこ町","lat":33.69916667,"lng":130.9205556},{"id":"402290","name":"みやま市","lat":33.1525,"lng":130.4747222},{"id":"403814","name":"芦屋町","lat":33.89388889,"lng":130.6638889},{"id":"404021","name":"鞍手町","lat":33.79194444,"lng":130.6741667},{"id":"403415","name":"宇美町","lat":33.56777778,"lng":130.5111111},{"id":"403849","name":"遠賀町","lat":33.84805556,"lng":130.6683333},{"id":"403831","name":"岡垣町","lat":33.85361111,"lng":130.6113889},{"id":"402273","name":"嘉麻市","lat":33.598421,"lng":130.719217},{"id":"406210","name":"苅田町","lat":33.77611111,"lng":130.9805556},{"id":"406422","name":"吉富町","lat":33.60277778,"lng":131.1761111},{"id":"403482","name":"久山町","lat":33.64666667,"lng":130.5},{"id":"402036","name":"久留米市","lat":33.31944444,"lng":130.5083333},{"id":"402265","name":"宮若市","lat":33.72361111,"lng":130.6666667},{"id":"404217","name":"桂川町","lat":33.57888889,"lng":130.6780556},{"id":"402231","name":"古賀市","lat":33.72888889,"lng":130.47},{"id":"405442","name":"広川町","lat":33.24138889,"lng":130.5513889},{"id":"402133","name":"行橋市","lat":33.72861111,"lng":130.9830556},{"id":"406015","name":"香春町","lat":33.66805556,"lng":130.8472222},{"id":"403431","name":"志免町","lat":33.59138889,"lng":130.4797222},{"id":"406040","name":"糸田町","lat":33.65277778,"lng":130.7791667},{"id":"402303","name":"糸島市","lat":33.55722222,"lng":130.1955556},{"id":"403423","name":"篠栗町","lat":33.62388889,"lng":130.5263889},{"id":"402206","name":"宗像市","lat":33.80555556,"lng":130.5405556},{"id":"402184","name":"春日市","lat":33.53277778,"lng":130.4702778},{"id":"402168","name":"小郡市","lat":33.39638889,"lng":130.5555556},{"id":"404012","name":"小竹町","lat":33.696782,"lng":130.707784},{"id":"406465","name":"上毛町","lat":33.57833333,"lng":131.1644444},{"id":"403458","name":"新宮町","lat":33.71527778,"lng":130.4466667},{"id":"403440","name":"須恵町","lat":33.58722222,"lng":130.5072222},{"id":"403822","name":"水巻町","lat":33.85472222,"lng":130.6947222},{"id":"406091","name":"赤村","lat":33.61666667,"lng":130.8708333},{"id":"406058","name":"川崎町","lat":33.6,"lng":130.8152778},{"id":"402214","name":"太宰府市","lat":33.51277778,"lng":130.5238889},{"id":"402125","name":"大川市","lat":33.20666667,"lng":130.3838889},{"id":"405035","name":"大刀洗町","lat":33.3725,"lng":130.6225},{"id":"406082","name":"大任町","lat":33.612164,"lng":130.853742},{"id":"402028","name":"大牟田市","lat":33.03027778,"lng":130.4461111},{"id":"405221","name":"大木町","lat":33.21055556,"lng":130.4397222},{"id":"402192","name":"大野城市","lat":33.53638889,"lng":130.4788889},{"id":"406473","name":"築上町","lat":33.65611111,"lng":131.0561111},{"id":"402117","name":"筑後市","lat":33.21222222,"lng":130.5022222},{"id":"402176","name":"筑紫野市","lat":33.487386,"lng":130.526007},{"id":"404471","name":"筑前町","lat":33.45694444,"lng":130.5952778},{"id":"402150","name":"中間市","lat":33.81666667,"lng":130.7091667},{"id":"402281","name":"朝倉市","lat":33.42333333,"lng":130.6655556},{"id":"402044","name":"直方市","lat":33.74388889,"lng":130.7297222},{"id":"406023","name":"添田町","lat":33.57166667,"lng":130.8541667},{"id":"402061","name":"田川市","lat":33.63888889,"lng":130.8061111},{"id":"404489","name":"東峰村","lat":33.39722222,"lng":130.87},{"id":"402311","name":"那珂川市","lat":33.49944444,"lng":130.4222222},{"id":"403491","name":"粕屋町","lat":33.61083333,"lng":130.4805556},{"id":"402109","name":"八女市","lat":33.21194444,"lng":130.5577778},{"id":"402052","name":"飯塚市","lat":33.64583333,"lng":130.6913889},{"id":"401307","name":"福岡市","lat":33.59,"lng":130.4016667},{"id":"401366","name":"福岡市城南区","lat":33.57583333,"lng":130.37},{"id":"401358","name":"福岡市西区","lat":33.58277778,"lng":130.3230556},{"id":"401374","name":"福岡市早良区","lat":33.58194444,"lng":130.3483333},{"id":"401331","name":"福岡市中央区","lat":33.58916667,"lng":130.3930556},{"id":"401315","name":"福岡市東区","lat":33.61777778,"lng":130.4175},{"id":"401340","name":"福岡市南区","lat":33.56166667,"lng":130.4266667},{"id":"401323","name":"福岡市博多区","lat":33.59138889,"lng":130.415},{"id":"406104","name":"福智町","lat":33.68333333,"lng":130.78},{"id":"402249","name":"福津市","lat":33.76694444,"lng":130.4911111},{"id":"402141","name":"豊前市","lat":33.61166667,"lng":131.1302778},{"id":"401005","name":"北九州市","lat":33.88333333,"lng":130.8752778},{"id":"401056","name":"北九州市戸畑区","lat":33.89333333,"lng":130.8297222},{"id":"401030","name":"北九州市若松区","lat":33.90555556,"lng":130.8111111},{"id":"401072","name":"北九州市小倉南区","lat":33.84638889,"lng":130.8847222},{"id":"401064","name":"北九州市小倉北区","lat":33.88083333,"lng":130.8736111},{"id":"401099","name":"北九州市八幡西区","lat":33.86138889,"lng":130.7602778},{"id":"401081","name":"北九州市八幡東区","lat":33.86361111,"lng":130.8119444},{"id":"401013","name":"北九州市門司区","lat":33.94111111,"lng":130.9597222},{"id":"402079","name":"柳川市","lat":33.16305556,"lng":130.4061111}]