[{"id":"413461","name":"みやき町","lat":33.325,"lng":130.4544444},{"id":"412058","name":"伊万里市","lat":33.26472222,"lng":129.8808333},{"id":"413411","name":"基山町","lat":33.42694444,"lng":130.5230556},{"id":"412091","name":"嬉野市","lat":33.12777778,"lng":130.06},{"id":"413275","name":"吉野ヶ里町","lat":33.32111111,"lng":130.3988889},{"id":"413879","name":"玄海町","lat":33.47222222,"lng":129.8747222},{"id":"414247","name":"江北町","lat":33.22055556,"lng":130.1572222},{"id":"412015","name":"佐賀市","lat":33.26333333,"lng":130.3008333},{"id":"412074","name":"鹿島市","lat":33.10416667,"lng":130.0986111},{"id":"412082","name":"小城市","lat":33.273776,"lng":130.21728},{"id":"413453","name":"上峰町","lat":33.31944444,"lng":130.4261111},{"id":"412104","name":"神埼市","lat":33.311423,"lng":130.371662},{"id":"412040","name":"多久市","lat":33.28861111,"lng":130.1102778},{"id":"414417","name":"太良町","lat":33.01944444,"lng":130.1791667},{"id":"414239","name":"大町町","lat":33.21388889,"lng":130.1161111},{"id":"412031","name":"鳥栖市","lat":33.37777778,"lng":130.5061111},{"id":"412023","name":"唐津市","lat":33.45,"lng":129.9686111},{"id":"414255","name":"白石町","lat":33.18083333,"lng":130.1433333},{"id":"412066","name":"武雄市","lat":33.194873,"lng":130.021557},{"id":"414018","name":"有田町","lat":33.21055556,"lng":129.8491667}]