[{"id":"422100","name":"壱岐市","lat":33.75,"lng":129.6911111},{"id":"422134","name":"雲仙市","lat":32.835,"lng":130.1875},{"id":"422118","name":"五島市","lat":32.69555556,"lng":128.8408333},{"id":"423912","name":"佐々町","lat":33.23833333,"lng":129.6505556},{"id":"422029","name":"佐世保市","lat":33.18,"lng":129.7155556},{"id":"423084","name":"時津町","lat":32.82888889,"lng":129.8486111},{"id":"423831","name":"小値賀町","lat":33.19111111,"lng":129.0591667},{"id":"422088","name":"松浦市","lat":33.34111111,"lng":129.7091667},{"id":"424111","name":"新上五島町","lat":32.98444444,"lng":129.0733333},{"id":"422126","name":"西海市","lat":32.93305556,"lng":129.6430556},{"id":"423220","name":"川棚町","lat":33.07277778,"lng":129.8613889},{"id":"422096","name":"対馬市","lat":34.20277778,"lng":129.2875},{"id":"422053","name":"大村市","lat":32.9,"lng":129.9583333},{"id":"422011","name":"長崎市","lat":32.75027778,"lng":129.8777778},{"id":"423076","name":"長与町","lat":32.82527778,"lng":129.875},{"id":"422037","name":"島原市","lat":32.78805556,"lng":130.3705556},{"id":"423211","name":"東彼杵町","lat":33.03694444,"lng":129.9172222},{"id":"422142","name":"南島原市","lat":32.65972222,"lng":130.2977778},{"id":"423238","name":"波佐見町","lat":33.13805556,"lng":129.8955556},{"id":"422070","name":"平戸市","lat":33.36805556,"lng":129.5538889},{"id":"422045","name":"諫早市","lat":32.84416667,"lng":130.0536111}]