[{"id":"452092","name":"えびの市","lat":32.04555556,"lng":130.8111111},{"id":"453838","name":"綾町","lat":31.99916667,"lng":131.2530556},{"id":"452033","name":"延岡市","lat":32.58222222,"lng":131.665},{"id":"452017","name":"宮崎市","lat":31.90777778,"lng":131.4202778},{"id":"452076","name":"串間市","lat":31.46472222,"lng":131.2286111},{"id":"454435","name":"五ヶ瀬町","lat":32.68305556,"lng":131.1961111},{"id":"453617","name":"高原町","lat":31.92833333,"lng":131.0077778},{"id":"454419","name":"高千穂町","lat":32.71166667,"lng":131.3077778},{"id":"454010","name":"高鍋町","lat":32.12833333,"lng":131.5033333},{"id":"453820","name":"国富町","lat":31.99055556,"lng":131.3236111},{"id":"453412","name":"三股町","lat":31.73083333,"lng":131.125},{"id":"454290","name":"諸塚村","lat":32.51222222,"lng":131.3302778},{"id":"452050","name":"小林市","lat":31.99666667,"lng":130.9727778},{"id":"454028","name":"新富町","lat":32.06888889,"lng":131.4877778},{"id":"452084","name":"西都市","lat":32.10861111,"lng":131.4013889},{"id":"454036","name":"西米良村","lat":32.22638889,"lng":131.1544444},{"id":"454052","name":"川南町","lat":32.19194444,"lng":131.5258333},{"id":"454303","name":"椎葉村","lat":32.46666667,"lng":131.1575},{"id":"452025","name":"都城市","lat":31.71972222,"lng":131.0616667},{"id":"454061","name":"都農町","lat":32.25666667,"lng":131.5597222},{"id":"452068","name":"日向市","lat":32.42277778,"lng":131.6238889},{"id":"452041","name":"日南市","lat":31.60194444,"lng":131.3788889},{"id":"454427","name":"日之影町","lat":32.659465,"lng":131.380909},{"id":"454311","name":"美郷町","lat":32.44027778,"lng":131.4233333},{"id":"454044","name":"木城町","lat":32.16388889,"lng":131.4733333},{"id":"454214","name":"門川町","lat":32.470914,"lng":131.646471}]