[{"id":"472131","name":"うるま市","lat":26.37916667,"lng":127.8575},{"id":"473553","name":"粟国村","lat":26.5825,"lng":127.2272222},{"id":"473154","name":"伊江村","lat":26.71333333,"lng":127.8072222},{"id":"473600","name":"伊是名村","lat":26.92833333,"lng":127.9411111},{"id":"473596","name":"伊平屋村","lat":27.03916667,"lng":127.9686111},{"id":"472085","name":"浦添市","lat":26.24583333,"lng":127.7219444},{"id":"472115","name":"沖縄市","lat":26.33416667,"lng":127.8055556},{"id":"473111","name":"恩納村","lat":26.4975,"lng":127.8536111},{"id":"473251","name":"嘉手納町","lat":26.36166667,"lng":127.7552778},{"id":"473138","name":"宜野座村","lat":26.48166667,"lng":127.9755556},{"id":"472051","name":"宜野湾市","lat":26.28166667,"lng":127.7783333},{"id":"473618","name":"久米島町","lat":26.34083333,"lng":126.805},{"id":"472140","name":"宮古島市","lat":24.789971,"lng":125.294752},{"id":"473146","name":"金武町","lat":26.45611111,"lng":127.9261111},{"id":"473014","name":"国頭村","lat":26.74583333,"lng":128.1780556},{"id":"473065","name":"今帰仁村","lat":26.6825,"lng":127.9727778},{"id":"473545","name":"座間味村","lat":26.22888889,"lng":127.3033333},{"id":"472107","name":"糸満市","lat":26.12361111,"lng":127.6658333},{"id":"473294","name":"西原町","lat":26.222856,"lng":127.758819},{"id":"472077","name":"石垣市","lat":24.344419,"lng":124.185246},{"id":"473758","name":"多良間村","lat":24.66944444,"lng":124.7016667},{"id":"473022","name":"大宜味村","lat":26.70166667,"lng":128.1202778},{"id":"473812","name":"竹富町","lat":24.33972222,"lng":124.1544444},{"id":"473286","name":"中城村","lat":26.26201,"lng":127.789618},{"id":"473537","name":"渡嘉敷村","lat":26.1975,"lng":127.3644444},{"id":"473561","name":"渡名喜村","lat":26.37222222,"lng":127.1411111},{"id":"473031","name":"東村","lat":26.63333333,"lng":128.1569444},{"id":"473243","name":"読谷村","lat":26.39611111,"lng":127.7444444},{"id":"472018","name":"那覇市","lat":26.212295,"lng":127.679218},{"id":"472158","name":"南城市","lat":26.16319,"lng":127.770625},{"id":"473570","name":"南大東村","lat":25.82888889,"lng":131.2319444},{"id":"473502","name":"南風原町","lat":26.19111111,"lng":127.7286111},{"id":"473626","name":"八重瀬町","lat":26.15834,"lng":127.718649},{"id":"472123","name":"豊見城市","lat":26.177136,"lng":127.681225},{"id":"473588","name":"北大東村","lat":25.94583333,"lng":131.2988889},{"id":"473260","name":"北谷町","lat":26.32,"lng":127.7638889},{"id":"473278","name":"北中城村","lat":26.30111111,"lng":127.7930556},{"id":"473081","name":"本部町","lat":26.65805556,"lng":127.8980556},{"id":"472093","name":"名護市","lat":26.59166667,"lng":127.9775},{"id":"473481","name":"与那原町","lat":26.19944444,"lng":127.7547222},{"id":"473821","name":"与那国町","lat":24.46805556,"lng":123.0047222}]