[{"id":"082309","name":"かすみがうら市","lat":36.15194444,"lng":140.2372222},{"id":"082350","name":"つくばみらい市","lat":35.96305556,"lng":140.0372222},{"id":"082201","name":"つくば市","lat":36.08361111,"lng":140.0763889},{"id":"082210","name":"ひたちなか市","lat":36.39638889,"lng":140.5344444},{"id":"084433","name":"阿見町","lat":36.03083333,"lng":140.215},{"id":"082295","name":"稲敷市","lat":35.972927,"lng":140.303583},{"id":"083020","name":"茨城町","lat":36.28694444,"lng":140.4247222},{"id":"082104","name":"下妻市","lat":36.18444444,"lng":139.9675},{"id":"084476","name":"河内町","lat":35.88472222,"lng":140.2444444},{"id":"082163","name":"笠間市","lat":36.345,"lng":140.3041667},{"id":"082198","name":"牛久市","lat":35.97944444,"lng":140.1497222},{"id":"085464","name":"境町","lat":36.10861111,"lng":139.795},{"id":"082074","name":"結城市","lat":36.289625,"lng":139.87147},{"id":"082040","name":"古河市","lat":36.17888889,"lng":139.7558333},{"id":"085421","name":"五霞町","lat":36.11444444,"lng":139.7452778},{"id":"082333","name":"行方市","lat":35.99027778,"lng":140.4891667},{"id":"082147","name":"高萩市","lat":36.71361111,"lng":140.7097222},{"id":"082287","name":"坂東市","lat":36.04833333,"lng":139.8888889},{"id":"082317","name":"桜川市","lat":36.32722222,"lng":140.0905556},{"id":"082228","name":"鹿嶋市","lat":35.96583333,"lng":140.645},{"id":"082171","name":"取手市","lat":35.91138889,"lng":140.0502778},{"id":"082244","name":"守谷市","lat":35.95138889,"lng":139.9755556},{"id":"082368","name":"小美玉市","lat":36.23944444,"lng":140.3525},{"id":"083101","name":"城里町","lat":36.47916667,"lng":140.3763889},{"id":"082112","name":"常総市","lat":36.02361111,"lng":139.9938889},{"id":"082121","name":"常陸太田市","lat":36.53833333,"lng":140.5311111},{"id":"082252","name":"常陸大宮市","lat":36.5425,"lng":140.4108333},{"id":"082325","name":"神栖市","lat":35.89,"lng":140.6647222},{"id":"082015","name":"水戸市","lat":36.36583333,"lng":140.4713889},{"id":"082058","name":"石岡市","lat":36.19083333,"lng":140.2872222},{"id":"083640","name":"大子町","lat":36.76805556,"lng":140.3552778},{"id":"083097","name":"大洗町","lat":36.31333333,"lng":140.575},{"id":"082279","name":"筑西市","lat":36.305263,"lng":139.979417},{"id":"082236","name":"潮来市","lat":35.94722222,"lng":140.5552778},{"id":"082031","name":"土浦市","lat":36.078391,"lng":140.204143},{"id":"083411","name":"東海村","lat":36.47305556,"lng":140.5661111},{"id":"082261","name":"那珂市","lat":36.4575,"lng":140.4866667},{"id":"082023","name":"日立市","lat":36.59916667,"lng":140.6516667},{"id":"085219","name":"八千代町","lat":36.18138889,"lng":139.8913889},{"id":"084425","name":"美浦村","lat":36.00444444,"lng":140.3019444},{"id":"082341","name":"鉾田市","lat":36.15861111,"lng":140.5163889},{"id":"082155","name":"北茨城市","lat":36.80194444,"lng":140.7511111},{"id":"085642","name":"利根町","lat":35.85777778,"lng":140.1394444},{"id":"082082","name":"龍ケ崎市","lat":35.91166667,"lng":140.1822222}]